,City,Lat,Lng,Max Temp,Humidity,Cloudiness,Wind Speed,Country,Date
0,Novyy Karachay,43.82,41.9,59.81,41,35,6.06,RU,1603994753
1,Biograd na Moru,43.94,15.45,57.99,100,20,8.86,HR,1603994753
2,Te Anau,-45.42,167.72,52.2,90,97,1.61,NZ,1603994753
3,Port Elizabeth,-33.92,25.57,59.0,87,75,26.4,ZA,1603994754
4,Narsaq,60.92,-46.05,32.0,95,75,2.24,GL,1603994754
5,Pisco,-13.7,-76.22,66.99,77,0,11.41,PE,1603994755
6,Hermanus,-34.42,19.23,53.01,70,64,1.01,ZA,1603994755
7,Saint-Philippe,-21.36,55.77,71.6,68,90,23.04,RE,1603994755
8,Horní Slavkov,50.14,12.81,43.0,86,0,5.82,CZ,1603994756
9,Ust-Nera,64.57,143.2,8.08,88,100,1.28,RU,1603994756
10,Barrow,71.29,-156.79,12.2,85,90,12.75,US,1603994621
11,Tiznit Province,29.58,-9.5,79.7,19,55,11.56,MA,1603994758
12,Rikitea,-23.12,-134.97,74.64,73,100,10.69,PF,1603994758
13,Provideniya,64.38,-173.3,22.6,87,0,6.44,RU,1603994758
14,Tasiilaq,65.61,-37.64,33.8,59,75,8.05,GL,1603994759
15,Thinadhoo,0.53,72.93,83.35,74,1,12.12,MV,1603994759
16,La Rioja,42.25,-2.5,61.0,67,0,2.66,ES,1603994759
17,Livingstonia,-10.61,34.11,68.67,65,39,6.17,MW,1603994760
18,Guerrero Negro,27.98,-114.06,76.1,21,57,2.91,MX,1603994760
19,Palmer,42.16,-72.33,46.99,100,90,3.36,US,1603994760
20,Kapaa,22.08,-159.32,64.4,93,1,5.82,US,1603994761
21,San Rafael,-34.62,-68.33,68.43,24,30,13.42,AR,1603994761
22,New Norfolk,-42.78,147.06,53.6,76,90,3.36,AU,1603994762
23,Qaanaaq,77.48,-69.36,5.02,73,0,5.55,GL,1603994762
24,Butaritari,3.07,172.79,81.73,77,68,12.57,KI,1603994763
25,Esperance,-33.87,121.9,50.0,87,0,9.17,AU,1603994763
26,Albany,42.6,-73.97,46.0,89,100,2.01,US,1603994764
27,Upernavik,72.79,-56.15,20.35,86,97,5.75,GL,1603994764
28,George Town,5.41,100.34,80.6,88,20,4.7,MY,1603994473
29,Vaini,-21.2,-175.2,69.8,77,20,6.93,TO,1603994765
30,Punta Arenas,-53.15,-70.92,51.8,62,40,43.62,CL,1603994765
31,Busselton,-33.65,115.33,61.0,40,0,12.55,AU,1603994765
32,Port Alfred,-33.59,26.89,62.87,83,100,21.97,ZA,1603994766
33,Banjar,-8.19,114.97,77.92,79,87,3.69,ID,1603994766
34,Seoul,37.57,126.98,44.6,42,1,2.19,KR,1603994622
35,Fairbanks,64.84,-147.72,15.8,85,90,1.39,US,1603994767
36,Petropavlovsk-Kamchatskiy,53.05,158.65,37.4,100,75,4.47,RU,1603994649
37,Bluff,-46.6,168.33,52.0,92,98,4.0,NZ,1603994769
38,Mataura,-46.19,168.86,52.0,92,95,4.0,NZ,1603994769
39,Tiksi,71.69,128.87,4.08,93,98,8.81,RU,1603994769
40,Norman Wells,65.28,-126.83,11.17,91,10,2.91,CA,1603994770
41,Ushuaia,-54.8,-68.3,46.4,81,75,34.45,AR,1603994770
42,Cape Town,-33.93,18.42,57.2,47,40,9.17,ZA,1603994771
43,Arraial do Cabo,-22.97,-42.03,82.4,88,75,9.17,BR,1603994735
44,Roald,62.58,6.13,45.0,87,20,6.93,NO,1603994771
45,Nome,64.5,-165.41,19.99,92,75,5.82,US,1603994772
46,Faya,18.39,42.45,66.2,36,0,6.89,SA,1603994772
47,São João da Barra,-21.64,-41.05,89.6,59,0,13.87,BR,1603994772
48,Buala,-8.14,159.59,78.8,86,100,9.22,SB,1603994773
49,East London,-33.02,27.91,64.4,88,75,18.34,ZA,1603994773
50,Bathsheba,13.22,-59.52,77.0,94,40,29.97,BB,1603994773
51,Saldanha,-33.01,17.94,57.2,58,8,11.41,ZA,1603994774
52,Mehamn,71.04,27.85,35.6,80,75,5.82,NO,1603994774
53,Longyearbyen,78.22,15.64,21.2,57,75,18.34,SJ,1603994547
54,Hobart,-42.88,147.33,53.6,76,90,3.36,AU,1603994557
55,Quatre Cocos,-20.21,57.76,71.01,63,58,7.0,MU,1603994775
56,Alofi,-19.06,-169.92,68.0,77,12,10.29,NU,1603994751
57,Plettenberg Bay,-34.05,23.37,57.87,72,100,14.74,ZA,1603994776
58,Vostok,46.49,135.88,31.66,100,100,3.62,RU,1603994776
59,Murray Bridge,-35.12,139.27,54.0,99,9,5.01,AU,1603994776
60,New Waterford,40.85,-80.61,45.0,89,100,3.0,US,1603994777
61,Okhotsk,59.38,143.3,27.3,96,100,9.57,RU,1603994777
62,Ayan,56.45,138.17,28.11,91,96,11.61,RU,1603994777
63,Miyako,39.64,141.95,44.49,73,28,5.32,JP,1603994778
64,Atuona,-9.8,-139.03,78.12,67,36,17.92,PF,1603994778
65,Avarua,-21.21,-159.78,73.4,83,100,6.93,CK,1603994778
66,Dikson,73.51,80.55,4.05,91,66,21.94,RU,1603994779
67,Darhan,49.49,105.92,33.53,83,100,2.28,MN,1603994779
68,‘Āhuimanu,21.44,-157.84,73.4,100,90,1.77,US,1603994779
69,Aripuanã,-9.17,-60.63,100.02,33,86,1.77,BR,1603994778
70,Lang Son,21.83,106.73,62.91,89,88,5.86,VN,1603994780
71,Jamestown,42.1,-79.24,44.01,87,90,8.05,US,1603994781
72,Fālākāta,26.52,89.21,70.27,59,9,4.12,IN,1603994781
73,Tuktoyaktuk,69.45,-133.04,5.63,93,93,5.1,CA,1603994781
74,Saint Paul Harbor,57.79,-152.41,28.4,74,1,5.82,US,1603994660
75,Severo-Kuril'sk,50.68,156.12,41.5,79,63,5.68,RU,1603994782
76,Barra de Tecoanapa,16.52,-98.75,86.34,64,72,5.86,MX,1603994782
77,Ribas do Rio Pardo,-20.44,-53.76,71.92,89,100,7.2,BR,1603994783
78,Mar del Plata,-38.0,-57.56,55.4,62,75,13.87,AR,1603994783
79,Mahébourg,-20.41,57.7,71.01,63,47,7.0,MU,1603994784
80,Ulladulla,-35.35,150.47,55.0,100,40,2.24,AU,1603994784
81,Dunedin,-45.87,170.5,53.01,93,82,4.0,NZ,1603994584
82,Constitución,-35.33,-72.42,62.98,48,0,14.74,CL,1603994784
83,Trofors,65.53,13.41,33.8,100,75,2.24,NO,1603994785
84,Bereda,43.27,-7.54,55.0,89,0,5.01,ES,1603994785
85,Magistral'nyy,56.17,107.45,27.0,95,66,3.91,RU,1603994785
86,Derby,52.92,-1.48,57.2,82,75,12.75,GB,1603994544
87,Puerto Ayora,-0.74,-90.35,77.0,73,75,9.17,EC,1603994786
88,Saskylakh,71.92,114.08,-0.51,84,0,4.05,RU,1603994786
89,Limbang,4.75,115.0,80.6,94,75,2.24,MY,1603994787
90,Wagga Wagga,-35.12,147.37,57.2,87,86,8.05,AU,1603994787
91,Samaná,19.21,-69.34,84.2,79,75,4.7,DO,1603994787
92,Blackwater,-23.58,148.88,66.51,34,0,3.74,AU,1603994788
93,Oistins,13.07,-59.53,77.0,94,40,29.97,BB,1603994788
94,Faanui,-16.48,-151.75,80.29,76,20,7.58,PF,1603994788
95,Taoudenni,22.68,-3.98,87.31,13,0,13.27,ML,1603994789
96,Pulaski,34.77,-92.3,46.99,93,90,11.41,US,1603994514
97,Yārāda,17.65,83.27,81.05,61,91,3.96,IN,1603994789
98,Liverpool,53.41,-2.98,59.0,82,90,14.99,GB,1603994544
99,Guntakal,15.17,77.38,74.34,73,93,5.21,IN,1603994790
100,Jiaocheng,24.68,116.14,66.02,90,88,2.35,CN,1603994790
101,Yar-Sale,66.83,70.83,14.18,96,100,8.28,RU,1603994522
102,Port Hedland,-20.32,118.57,75.2,88,62,11.41,AU,1603994791
103,Ilulissat,69.22,-51.1,21.2,73,75,3.36,GL,1603994791
104,Lebu,-37.62,-73.65,54.05,67,0,21.81,CL,1603994792
105,Chui,-33.7,-53.46,61.66,61,43,15.37,UY,1603994792
106,Port Blair,11.67,92.75,80.69,83,90,8.55,IN,1603994793
107,Airai,-8.93,125.41,60.8,100,32,1.19,TL,1603994793
108,Salalah,17.02,54.09,80.6,65,0,4.7,OM,1603994793
109,Hilo,19.73,-155.09,73.99,73,90,4.7,US,1603994794
110,Litovko,49.24,135.17,33.48,90,42,3.11,RU,1603994794
111,Zhoucheng,35.91,116.31,52.61,58,53,2.62,CN,1603994794
112,Mossamedes,-15.2,12.15,71.47,76,20,10.4,AO,1603994795
113,Helong,42.54,129.0,28.44,85,0,3.67,CN,1603994795
114,Hong Kong,22.29,114.16,75.99,83,93,1.01,HK,1603994739
115,Lima Duarte,-21.84,-43.79,84.2,45,40,6.93,BR,1603994796
116,Lakselv,70.05,24.97,32.0,95,40,32.21,NO,1603994796
117,Karhal,27.0,78.94,71.73,25,0,3.74,IN,1603994518
118,Bambous Virieux,-20.34,57.76,71.01,63,55,7.0,MU,1603994797
119,Andros Town,24.7,-77.77,87.8,70,40,14.99,BS,1603994797
120,Cayenne,4.93,-52.33,89.6,62,75,13.87,GF,1603994798
121,Aykhal,66.0,111.5,-8.46,89,47,2.48,RU,1603994798
122,Kavaratti,10.57,72.64,82.83,73,64,8.28,IN,1603994798
123,Waipawa,-41.41,175.52,59.0,93,96,14.99,NZ,1603994799
124,Kabale,-1.25,29.99,61.0,92,100,2.04,UG,1603994800
125,Tambopata,-12.73,-69.18,77.0,83,75,9.17,PE,1603994800
126,Maniitsoq,65.42,-52.9,25.07,87,83,6.35,GL,1603994800
127,Khatanga,71.97,102.5,1.42,86,0,13.2,RU,1603994801
128,Goderich,43.75,-81.72,50.0,85,100,5.99,CA,1603994801
129,Khonsa,27.02,95.57,67.55,77,0,2.77,IN,1603994801
130,Cochrane,51.18,-114.47,41.0,87,84,5.99,CA,1603994525
131,Mocajuba,-2.58,-49.51,93.81,44,65,5.19,BR,1603994802
132,Fortuna,40.6,-124.16,61.0,47,1,4.7,US,1603994803
133,Cabo San Lucas,22.89,-109.91,82.99,50,5,3.36,MX,1603994803
134,Iqaluit,63.75,-68.51,8.67,90,47,6.15,CA,1603994803
135,Sapele,5.89,5.68,77.74,90,97,4.61,NG,1603994804
136,Bengkulu,-3.8,102.27,75.49,88,99,7.49,ID,1603994804
137,San Patricio,28.02,-97.52,68.0,40,20,25.28,US,1603994804
138,Husavik,66.04,-17.34,42.8,70,90,5.82,IS,1603994804
139,Rocha,-34.48,-54.33,61.07,59,1,18.79,UY,1603994805
140,Koumac,-20.57,164.28,72.41,79,51,4.9,NC,1603994805
141,Santa Rosa,14.31,121.11,80.6,88,75,2.24,PH,1603994806
142,Souillac,-20.52,57.52,71.01,63,42,7.0,MU,1603994806
143,Melo,-32.37,-54.18,66.88,58,48,13.58,UY,1603994806
144,Yellowknife,62.46,-114.35,17.01,85,6,5.99,CA,1603994806
145,Nauta,-4.51,-73.58,96.26,44,19,4.68,PE,1603994807
146,Aksarka,66.56,67.8,16.16,97,97,7.05,RU,1603994808
147,Dvinskoy Bereznik,62.86,42.71,47.07,90,99,8.25,RU,1603994809
148,Laas,46.62,10.7,48.0,86,75,3.36,IT,1603994809
149,Hammerfest,70.66,23.68,32.0,85,90,13.87,NO,1603994809
150,Whitianga,-36.83,175.7,63.0,93,100,3.0,NZ,1603994810
151,Castro,-24.79,-50.01,71.15,59,100,12.06,BR,1603994810
152,Hithadhoo,-0.6,73.08,83.48,75,1,12.53,MV,1603994810
153,Nanortalik,60.14,-45.24,31.87,94,100,9.62,GL,1603994811
154,Westport,41.14,-73.36,48.2,93,90,12.75,US,1603994551
155,Fuxin,42.02,121.66,41.81,57,0,1.48,CN,1603994811
156,Manaus,-3.1,-60.02,93.2,56,40,8.05,BR,1603994812
157,Tripoli,32.88,13.19,69.82,57,33,11.3,LY,1603994587
158,Karratha,-20.74,116.85,71.28,87,41,12.24,AU,1603994812
159,Swellendam,-34.02,20.44,59.0,47,90,18.34,ZA,1603994813
160,Hongjiang,27.11,110.0,59.14,87,98,1.03,CN,1603994813
161,Kavieng,-2.57,150.8,82.18,73,83,3.8,PG,1603994813
162,Ambon City,-3.7,128.18,78.01,100,27,4.76,ID,1603994814
163,Cherskiy,68.75,161.3,5.9,91,100,3.96,RU,1603994814
164,Ketchikan,55.34,-131.65,39.2,100,90,3.15,US,1603994548
165,Islamkot,24.7,70.18,80.67,29,0,4.34,PK,1603994814
166,Klaksvík,62.23,-6.59,46.4,93,3,12.75,FO,1603994815
167,Santiago,-33.46,-70.65,81.0,23,0,3.36,CL,1603994750
168,Flagstaff,35.2,-111.65,59.0,21,0,3.0,US,1603994815
169,Chokurdakh,70.63,147.92,-5.17,91,68,5.86,RU,1603994816
170,Laurel,39.1,-76.85,59.0,100,90,7.16,US,1603994816
171,Comodoro Rivadavia,-45.87,-67.5,62.6,36,0,10.29,AR,1603994816
172,Vila Velha,-20.33,-40.29,86.0,70,20,19.46,BR,1603994817
173,Talnakh,69.49,88.4,6.24,88,94,6.42,RU,1603994817
174,Buta,2.79,24.73,72.19,95,96,0.89,CD,1603994817
175,Prymors'k,46.73,36.34,56.23,81,100,3.6,UA,1603994818
176,Bereket,39.24,55.52,48.97,38,0,17.11,TM,1603994818
177,Ishigaki,24.34,124.16,77.04,82,70,22.41,JP,1603994818
178,Tura,25.52,90.22,71.62,87,6,3.76,IN,1603994819
179,Amalāpuram,16.58,82.02,75.15,70,61,1.83,IN,1603994819
180,Flinders,-34.58,150.86,55.0,90,20,1.01,AU,1603994820
181,Tessalit,20.2,1.01,85.06,13,0,6.8,ML,1603994527
182,Thompson,55.74,-97.86,23.18,96,79,9.89,CA,1603994584
183,Jutaí,-5.18,-68.9,86.13,77,96,3.22,BR,1603994821
184,Kathmandu,27.72,85.32,59.0,87,20,3.36,NP,1603994632
185,Margate,51.38,1.39,57.99,84,100,4.0,GB,1603994593
186,Itarema,-2.92,-39.92,85.5,59,14,21.21,BR,1603994822
187,Ponta do Sol,32.67,-17.1,71.6,64,40,11.41,PT,1603994822
188,Panacan,9.25,118.41,79.47,76,68,5.82,PH,1603994823
189,Adrar,20.5,-10.07,89.35,12,0,5.68,MR,1603994823
190,Geraldton,-28.77,114.6,71.6,68,100,5.82,AU,1603994824
191,Mathbaria,22.29,89.96,76.84,82,85,5.61,BD,1603994824
192,Kabakovo,54.54,56.15,33.8,80,0,11.18,RU,1603994825
193,Sitka,57.05,-135.33,41.0,86,90,6.93,US,1603994786
194,Lagoa,39.05,-27.98,68.65,87,100,23.94,PT,1603994826
195,Vila,42.03,-8.16,55.0,86,0,1.01,PT,1603994826
196,Synya,65.37,58.04,35.2,95,99,10.67,RU,1603994827
197,Ballina,-28.87,153.57,57.99,100,13,3.36,AU,1603994685
198,Tevriz,57.51,72.4,36.1,96,100,11.23,RU,1603994827
199,Laguna,38.42,-121.42,64.99,50,1,3.15,US,1603994829
200,Mount Gambier,-37.83,140.77,51.8,93,90,6.93,AU,1603994829
201,Anacortes,48.51,-122.61,55.0,87,90,11.41,US,1603994829
202,Odienné,9.51,-7.57,79.18,50,17,3.27,CI,1603994830
203,Nikolskoye,59.7,30.79,50.0,93,90,2.24,RU,1603994831
204,Taltal,-25.4,-70.48,63.9,57,27,7.02,CL,1603994831
205,Bethel,41.37,-73.41,45.0,89,100,3.0,US,1603994832
206,Ribeira Grande,38.52,-28.7,66.2,93,75,5.82,PT,1603994832
207,Warmbad,-28.45,18.73,66.45,39,40,19.48,NA,1603994833
208,At-Bashi,41.17,75.81,25.74,79,70,2.8,KG,1603994833
209,Touros,-5.2,-35.46,86.0,58,75,17.22,BR,1603994833
210,Tignère,7.37,12.65,69.96,60,82,2.24,CM,1603994834
211,Mahon,39.89,4.27,62.6,72,0,2.24,ES,1603994834
212,Yangi Marg`ilon,40.43,71.72,44.6,39,1,9.17,UZ,1603994835
213,Kasongo-Lunda,-6.47,16.82,73.74,90,90,2.53,CD,1603994835
214,Makakilo City,21.35,-158.09,73.4,88,90,3.36,US,1603994836
215,Muravlenko,63.79,74.52,13.66,97,86,8.55,RU,1603994836
216,Bredasdorp,-34.53,20.04,59.0,47,100,18.34,ZA,1603994837
217,Sahuaripa,29.05,-109.23,75.56,18,28,3.33,MX,1603994837
218,Khovd,48.01,91.64,29.59,73,0,7.58,MN,1603994818
219,Huarmey,-10.07,-78.15,70.34,64,23,11.77,PE,1603994816
220,Neryungri,56.67,124.65,12.25,93,100,5.14,RU,1603994838
221,Bosaso,11.28,49.18,80.96,74,16,1.97,SO,1603994839
222,Angoche,-16.23,39.91,78.01,77,0,6.76,MZ,1603994839
223,Leningradskiy,69.38,178.42,12.83,87,7,11.77,RU,1603994839
224,Port Macquarie,-31.43,152.92,51.01,100,40,3.51,AU,1603994840
225,Keti Bandar,24.14,67.45,79.23,59,0,4.65,PK,1603994840
226,Lavrentiya,65.58,-171.0,22.48,89,0,7.43,RU,1603994781
227,Morant Bay,17.88,-76.41,88.0,74,20,13.87,JM,1603994841
228,Edd,13.93,41.69,85.77,41,0,12.71,ER,1603994841
229,Santa Cruz de la Sierra,-17.8,-63.17,87.8,48,75,23.04,BO,1603994841
230,Saint-François,46.42,3.91,54.0,93,75,2.24,FR,1603994842
231,Barcelos,41.54,-8.62,62.01,72,20,0.72,PT,1603994842
232,Nemuro,43.32,145.57,46.51,83,33,12.73,JP,1603994843
233,Pozhva,59.09,56.08,35.47,88,97,7.96,RU,1603994843
234,Bilma,18.69,12.92,77.38,17,0,4.21,NE,1603994843
235,Miandrivazo,-19.52,45.47,83.84,54,11,5.46,MG,1603994844
236,Ixtapa,20.7,-105.2,86.0,54,75,4.7,MX,1603994844
237,Mehrān,33.12,46.16,57.2,24,0,4.7,IR,1603994845
238,Várzea Paulista,-23.21,-46.83,93.2,23,40,4.7,BR,1603994741
239,Altagracia de Orituco,9.86,-66.38,84.92,73,100,4.25,VE,1603994845
240,Lotofaga,-13.98,-171.86,75.2,100,75,5.82,WS,1603994846
241,Saint George,37.1,-113.58,64.0,22,1,1.54,US,1603994757
242,Kurandvād,16.68,74.58,71.76,67,83,1.61,IN,1603994846
243,Poço Verde,-10.71,-38.18,90.45,37,91,11.52,BR,1603994847
244,Guasdualito,7.24,-70.73,90.81,58,34,4.34,VE,1603994847
245,Okakarara,-20.58,17.43,74.61,46,64,7.54,NA,1603994848
246,Yong’an,39.7,113.69,40.62,60,0,2.21,CN,1603994848
247,Pacific Grove,36.62,-121.92,62.6,29,1,6.24,US,1603994553
248,The Valley,18.22,-63.06,86.0,66,20,17.22,AI,1603994849
249,Eganville,45.53,-77.1,37.0,79,100,3.0,CA,1603994849
250,Kruisfontein,-34.0,24.73,57.0,90,100,5.99,ZA,1603994806
251,Coyhaique,-45.58,-72.07,57.2,41,0,5.82,CL,1603994559
252,Ghanzi,-21.57,21.78,83.21,26,77,4.9,BW,1603994851
253,Ucluelet,48.93,-125.55,54.0,94,90,1.01,CA,1603994725
254,Carnarvon,-24.87,113.63,71.6,100,90,8.05,AU,1603994851
255,Grand Gaube,-20.01,57.66,71.01,63,15,7.0,MU,1603994852
256,Kewanee,41.25,-89.92,46.99,67,76,5.01,US,1603994852
257,Koslan,63.46,48.9,41.92,94,100,10.27,RU,1603994852
258,Maracaçumé,-2.04,-45.96,88.56,59,88,4.16,BR,1603994853
259,Wright,45.18,-93.95,33.8,59,32,5.26,US,1603994853
260,Haines Junction,60.75,-137.51,22.53,92,100,2.75,CA,1603994853
261,Pochutla,15.74,-96.47,88.0,66,40,4.34,MX,1603994854
262,Finspång,58.71,15.77,46.4,100,75,2.24,SE,1603994854
263,Kargasok,59.06,80.86,21.72,98,100,8.41,RU,1603994854
264,Brae,60.4,-1.35,48.2,87,20,16.11,GB,1603994855
265,Yulara,-25.24,130.99,68.0,30,40,10.29,AU,1603994855
266,Horta,38.53,-28.63,66.2,93,75,5.82,PT,1603994856
267,Rønne,55.1,14.71,51.8,81,98,16.11,DK,1603994856
268,São Filipe,14.9,-24.5,83.03,65,1,5.59,CV,1603994818
269,Koulikoro,14.0,-7.75,84.9,14,4,5.88,ML,1603994857
270,Beringovskiy,63.05,179.32,24.15,86,0,8.21,RU,1603994857
271,Lufkin,31.34,-94.73,57.99,66,90,13.87,US,1603994674
272,Victor Harbor,-35.57,138.62,55.0,88,63,8.01,AU,1603994858
273,Coquimbo,-29.95,-71.34,60.8,67,20,14.99,CL,1603994859
274,La Providencia,28.72,-111.58,81.0,25,96,5.01,MX,1603994860
275,Odesa,46.48,30.73,51.8,87,40,6.22,UA,1603994691
276,Jesenice,46.43,14.07,46.4,87,20,3.36,SI,1603994861
277,Nouadhibou,20.93,-17.03,75.2,60,58,17.22,MR,1603994861
278,Cidreira,-30.18,-50.21,63.14,72,100,12.48,BR,1603994861
279,Tshela,-4.98,12.93,77.56,78,96,0.98,CD,1603994862
280,Kampong Thom,12.71,104.89,73.4,95,92,6.17,KH,1603994862
281,Allonnes,47.97,0.16,60.01,82,90,8.05,FR,1603994862
282,Honiara,-9.43,159.95,75.2,100,90,2.24,SB,1603994863
283,College,64.86,-147.8,17.6,78,90,3.36,US,1603994863
284,Loudi,27.73,111.99,59.0,79,68,1.81,CN,1603994863
285,Peniche,39.36,-9.38,62.01,71,0,1.01,PT,1603994864
286,Oranjemund,-28.55,16.43,59.25,76,12,23.4,NA,1603994864
287,Ostrovnoy,68.05,39.51,43.36,82,62,26.31,RU,1603994864
288,Acajutla,13.59,-89.83,77.0,94,0,4.7,SV,1603994865
289,Ca Mau,9.18,105.15,75.52,92,100,3.15,VN,1603994865
290,San Policarpo,12.18,125.51,81.21,83,100,11.25,PH,1603994865
291,Erlangen,49.59,11.0,52.0,93,75,3.36,DE,1603994600
292,Manturovo,58.34,44.76,36.61,86,75,6.55,RU,1603994866
293,Kirakira,-10.45,161.92,79.18,81,100,7.72,SB,1603994866
294,Portalegre,39.29,-7.43,68.0,72,0,4.7,PT,1603994867
295,Hambantota,6.12,81.12,79.3,82,53,9.82,LK,1603994867
296,Parker,32.77,-97.8,52.0,80,91,3.0,US,1603994687
297,Lincoln,40.8,-96.67,46.0,48,1,13.87,US,1603994851
298,Dolovo,44.9,20.88,54.0,87,99,6.93,RS,1603994869
299,San Cristobal,7.77,-72.22,86.0,62,40,8.05,VE,1603994869
300,Isla Mujeres,21.23,-86.73,84.2,79,40,5.82,MX,1603994870
301,Rio Grande,-32.03,-52.1,68.0,58,77,7.0,BR,1603994870
302,Oyama,36.3,139.8,62.01,62,75,4.7,JP,1603994871
303,Codrington,-38.27,141.97,48.38,92,57,3.15,AU,1603994871
304,Luanda,-8.84,13.23,78.8,83,40,10.29,AO,1603994871
305,Acapulco de Juárez,16.86,-99.89,86.0,70,40,3.36,MX,1603994872
306,Kahului,20.89,-156.47,75.2,88,75,4.25,US,1603994872
307,Antón Lizardo,19.05,-95.98,80.01,83,90,10.29,MX,1603994872
308,Kumul,42.8,93.45,47.32,49,100,12.68,CN,1603994780
309,Cobán,15.48,-90.37,69.8,83,90,4.7,GT,1603994873
310,Shonguy,68.75,33.15,35.6,93,75,6.71,RU,1603994874
311,Necochea,-38.55,-58.74,57.99,56,3,10.0,AR,1603994874
312,Meulaboh,4.14,96.13,77.07,85,100,3.42,ID,1603994874
313,Bonthe,7.53,-12.51,82.22,77,14,6.98,SL,1603994875
314,Atbasar,51.8,68.33,32.27,93,11,10.47,KZ,1603994875
315,Finschhafen,-6.6,147.87,79.2,76,50,2.73,PG,1603994876
316,Arenal,8.46,-73.94,87.6,63,55,4.56,CO,1603994876
317,Pushkino,56.02,37.87,46.4,75,90,8.95,RU,1603994876
318,Asău,46.43,26.4,53.01,83,44,4.54,RO,1603994877
319,Berwick,41.05,-76.23,48.0,95,100,7.49,US,1603994877
320,Buin,-33.73,-70.75,77.0,23,0,3.36,CL,1603994878
321,Caravelas,-17.71,-39.25,82.44,68,96,13.76,BR,1603994878
322,Hashtrūd,37.48,47.05,56.43,37,0,1.9,IR,1603994879
323,Slave Lake,55.28,-114.77,33.94,89,93,5.66,CA,1603994880
324,Tsimmerbude,54.67,20.13,48.2,93,40,6.71,RU,1603994880
325,Lüderitz,-26.65,15.16,62.53,67,21,28.57,NA,1603994880
326,Trelew,-43.25,-65.31,71.73,20,0,9.66,AR,1603994799
327,Belogorsk,50.92,128.46,28.45,92,25,3.89,RU,1603994881
328,Korsholm,63.11,21.68,46.4,87,90,10.29,FI,1603994881
329,Naze,28.37,129.48,75.2,64,90,11.41,JP,1603994881
330,Richards Bay,-28.78,32.04,74.5,82,5,9.69,ZA,1603994882
331,Paamiut,61.99,-49.67,28.2,88,85,9.51,GL,1603994882
332,Strezhevoy,60.73,77.59,19.4,92,90,6.71,RU,1603994882
333,Port-Gentil,-0.72,8.78,80.6,83,40,6.93,GA,1603994883
334,Hasaki,35.73,140.83,53.6,71,75,9.17,JP,1603994816
335,Pangnirtung,66.15,-65.71,9.19,83,28,3.47,CA,1603994883
336,Poum,-20.23,164.02,75.74,75,37,16.15,NC,1603994884
337,Almaznyy,48.04,40.05,55.4,71,20,20.13,RU,1603994884
338,Amapá,1.0,-52.0,99.59,30,84,5.68,BR,1603994885
339,Asmara,15.33,38.93,56.59,88,0,4.0,ER,1603994885
340,Gamba,-2.65,10.0,77.9,88,22,5.95,GA,1603994885
341,Hualmay,-11.1,-77.61,68.94,67,73,9.82,PE,1603994831
342,Maragogi,-9.01,-35.22,81.43,67,32,10.4,BR,1603994886
343,Kloulklubed,7.04,134.26,77.0,94,75,9.44,PW,1603994887
344,Raisen,23.33,77.8,70.18,36,0,3.02,IN,1603994887
345,Tazovsky,67.47,78.7,-2.4,93,0,7.94,RU,1603994888
346,Klášterec nad Ohří,50.38,13.17,43.0,86,0,5.82,CZ,1603994888
347,Evensk,61.95,159.23,20.19,83,2,3.76,RU,1603994888
348,Mazagão,-0.12,-51.29,95.0,53,40,13.87,BR,1603994655
349,Calgary,51.05,-114.09,41.0,75,88,1.01,CA,1603994889
350,Deep River,46.1,-77.5,37.0,77,98,5.01,CA,1603994890
351,Samarai,-10.62,150.67,79.59,80,93,5.37,PG,1603994890
352,Athabasca,54.72,-113.29,35.04,87,93,7.92,CA,1603994891
353,Havre-St-Pierre,50.23,-63.6,35.94,81,67,19.82,CA,1603994891
354,Lata,40.16,-8.33,62.01,76,5,1.19,PT,1603994891
355,Loznica,44.53,19.22,55.4,87,75,1.12,RS,1603994892
356,Harper,4.38,-7.72,78.66,87,61,6.42,LR,1603994892
357,Beloha,-25.17,45.05,69.51,73,1,18.59,MG,1603994892
358,Verāval,20.9,70.37,79.48,70,57,7.63,IN,1603994892
359,Mount Isa,-20.73,139.5,55.4,37,17,4.23,AU,1603994893
360,Villa Carlos Paz,-31.42,-64.5,73.0,32,0,1.99,AR,1603994893
361,Port Lincoln,-34.73,135.87,55.51,80,68,20.78,AU,1603994894
362,Arrondissement de Pithiviers,48.17,2.25,59.0,82,90,11.41,FR,1603994894
363,Anadyr,64.75,177.48,5.0,84,0,6.71,RU,1603994895
364,Havøysund,71.0,24.66,37.4,69,75,9.17,NO,1603994792
365,Vestmannaeyjar,63.44,-20.27,46.4,81,40,24.16,IS,1603994895
366,Oddur,4.12,43.89,75.9,77,85,9.1,SO,1603994896
367,Ancud,-41.87,-73.82,57.2,54,20,11.41,CL,1603994896
368,Martapura,-3.42,114.85,75.58,92,100,2.06,ID,1603994841
369,Shenjiamen,29.96,122.3,62.62,71,0,13.2,CN,1603994897
370,Sydney,-33.87,151.21,57.99,87,0,5.82,AU,1603994697
371,Kaitangata,-46.28,169.85,53.01,94,78,1.01,NZ,1603994898
372,Lucea,18.45,-78.17,87.8,70,20,13.87,JM,1603994898
373,Safford,32.83,-109.71,60.8,38,1,19.46,US,1603994706
374,Arrondissement du Havre,49.58,0.33,59.0,82,90,16.11,FR,1603994899
375,Omboué,-1.57,9.26,76.77,89,91,4.56,GA,1603994899
376,Puri,19.8,85.85,77.23,58,86,6.11,IN,1603994650
377,Leh,34.17,77.58,30.47,68,54,4.41,IN,1603994900
378,Pevek,69.7,170.31,18.18,93,99,8.1,RU,1603994900
379,Kochevo,59.6,54.31,33.49,94,95,6.02,RU,1603994901
380,Sayyan,15.17,44.32,53.56,40,0,4.32,YE,1603994901
381,Tigil',57.8,158.67,32.07,97,89,4.83,RU,1603994901
382,Katobu,-4.94,122.53,76.98,88,77,2.15,ID,1603994902
383,Broome,42.25,-75.83,45.0,87,90,5.82,US,1603994902
384,Timberlake,37.32,-79.26,72.0,94,90,9.17,US,1603994902
385,Alice Springs,-23.7,133.88,73.4,28,11,13.87,AU,1603994903
386,Tongliao,43.61,122.27,35.49,71,0,6.51,CN,1603994903
387,Vengerovo,55.68,76.75,31.8,97,100,14.05,RU,1603994903
388,Luau,-10.71,22.22,72.48,72,60,2.77,AO,1603994904
389,Berlevåg,70.86,29.09,39.2,69,75,18.34,NO,1603994904
390,Ruwi,23.6,58.55,78.8,69,0,3.36,OM,1603994904
391,Warwick,41.7,-71.42,46.99,93,90,3.36,US,1603994905
392,Krasnosel'kup,65.7,82.47,-3.23,93,14,2.44,RU,1603994905
393,Katsuura,35.13,140.3,60.01,51,75,18.34,JP,1603994906
394,Manzhouli,49.6,117.43,30.38,88,79,2.28,CN,1603994906
395,Sinnamary,5.38,-52.95,85.95,72,86,12.1,GF,1603994906
396,Lompoc,34.64,-120.46,62.6,43,1,4.5,US,1603994907
397,Bandarbeyla,9.49,50.81,79.18,80,28,13.04,SO,1603994907
398,Kuching,1.55,110.33,77.0,100,20,2.37,MY,1603994908
399,Ossora,59.24,163.07,34.16,93,99,4.45,RU,1603994908
400,Porto Torres,40.84,8.4,62.6,72,0,1.12,IT,1603994909
401,Santa Isabel Rio Negro,-0.41,-65.02,97.65,42,51,2.51,BR,1603994909
402,Jasdan,22.03,71.2,77.43,55,38,7.94,IN,1603994909
403,Araouane,18.9,-3.53,91.06,11,72,4.45,ML,1603994910
404,Ouallam,14.32,2.09,91.0,14,11,6.93,NE,1603994910
405,Buncrana,55.13,-7.45,60.8,87,75,20.8,IE,1603994911
406,Bonoua,5.27,-3.6,82.4,83,75,6.93,CI,1603994911
407,Malibu,34.01,-118.81,78.01,43,0,3.0,US,1603994912
408,Chabahar,25.29,60.64,73.4,60,0,8.93,IR,1603994708
409,Barranca,-10.75,-77.77,68.09,69,89,11.41,PE,1603994912
410,Padang,-0.95,100.35,78.71,71,100,2.62,ID,1603994913
411,Ponta Delgada,37.73,-25.67,69.8,88,75,16.11,PT,1603994913
412,Nogliki,51.83,143.17,34.79,88,24,6.62,RU,1603994913
413,Kamienna Góra,50.78,16.03,42.01,71,32,5.57,PL,1603994914
414,Namioka,40.71,140.59,46.99,64,60,5.99,JP,1603994914
415,Esim,4.87,-2.24,79.11,81,37,5.01,GH,1603994914
416,Aranos,-24.13,19.12,76.5,35,96,6.17,NA,1603994915
417,Belyy Yar,53.6,91.39,24.8,68,0,8.95,RU,1603994915
418,Portland,45.52,-122.68,53.01,87,90,5.82,US,1603994902
419,Prata,-19.31,-48.92,88.25,47,89,7.27,BR,1603994915
420,Leshukonskoye,64.9,45.76,43.54,93,100,9.78,RU,1603994916
421,Siyabuswa,-25.11,29.04,79.7,17,0,11.72,ZA,1603994916
422,Diamantino,-14.41,-56.45,81.28,74,96,5.68,BR,1603994916
423,Naco,31.33,-109.95,66.99,28,17,11.99,MX,1603994917
424,Lahān,26.73,86.5,73.44,62,0,3.47,NP,1603994917
425,Tomigusuku,26.18,127.67,75.2,78,75,6.93,JP,1603994918
426,Torbay,47.67,-52.73,41.0,82,72,9.08,CA,1603994918
427,Verkhoyansk,67.54,133.38,3.94,92,100,0.92,RU,1603994918
428,Half Moon Bay,37.46,-122.43,70.0,62,5,0.2,US,1603994918
429,Tarakan,3.3,117.63,76.78,87,38,9.01,ID,1603994672
430,Katangli,51.71,143.23,33.87,91,35,6.42,RU,1603994919
431,Aswān,24.09,32.91,86.77,16,0,15.52,EG,1603994919
432,Moree,-29.47,149.85,53.6,76,0,9.44,AU,1603994920
433,Cockburn Town,21.46,-71.14,82.85,76,12,18.79,TC,1603994864
434,Selaphum,16.03,103.94,73.24,97,87,7.72,TH,1603994920
435,Salmās,38.2,44.77,48.2,70,20,6.93,IR,1603994921
436,Rauma,61.13,21.51,44.6,93,20,6.93,FI,1603994921
437,La Primavera,5.49,-70.41,91.72,52,11,8.16,CO,1603994922
438,Sabha,27.04,14.43,70.79,37,0,12.03,LY,1603994922
439,Kieta,-6.22,155.63,79.83,76,100,2.8,PG,1603994922
440,Mgachi,51.05,142.27,32.92,95,82,3.53,RU,1603994923
441,Shimoda,34.67,138.95,53.01,68,71,1.99,JP,1603994923
442,Vardø,70.37,31.11,33.8,79,90,18.34,NO,1603994923
443,Palembang,-2.92,104.75,75.34,92,29,2.89,ID,1603994924
444,Ngunguru,-35.62,174.5,59.0,95,99,7.29,NZ,1603994886
445,São Desidério,-12.36,-44.97,88.7,45,100,4.34,BR,1603994925
446,Bembèrèkè,10.23,2.66,79.88,38,44,3.4,BJ,1603994925
447,Lethem,3.38,-59.8,96.06,40,90,5.28,GY,1603994925
448,Terrace,54.52,-128.6,37.99,92,99,1.63,CA,1603994926
449,Rehoboth,-23.32,17.08,75.47,38,85,7.47,NA,1603994926
450,Merauke,-8.47,140.33,78.85,81,41,6.13,ID,1603994927
451,Northam,51.03,-4.22,59.0,92,91,7.0,GB,1603994927
452,North Bend,43.41,-124.22,59.0,100,40,4.52,US,1603994706
453,Kaspiysk,42.88,47.64,60.8,87,90,4.47,RU,1603994927
454,Kommunar,59.62,30.39,50.0,93,90,2.24,RU,1603994928
455,Mahibadhoo,3.78,72.97,82.44,77,54,10.0,MV,1603994928
456,Bose,45.46,8.01,55.0,87,69,1.99,IT,1603994928
457,Nyimba,-14.56,30.81,82.83,36,64,5.19,ZM,1603994929
458,Derzhavīnsk,51.1,66.32,34.81,84,0,10.13,KZ,1603994930
459,Ballitoville,-29.54,31.21,75.2,73,75,16.11,ZA,1603994930
460,San Rafael del Sur,11.85,-86.44,86.0,66,40,6.93,NI,1603994931
461,Sarany,58.5,58.88,31.01,98,100,9.93,RU,1603994931
462,Invermere,50.52,-116.04,41.79,79,98,3.71,CA,1603994931
463,Gillette,44.29,-105.5,55.4,43,1,11.41,US,1603994738
464,Mahon,39.89,4.27,62.6,72,0,2.24,ES,1603994796
465,Socorro,31.65,-106.3,57.0,50,5,4.7,US,1603994932
466,Port Augusta,-32.5,137.77,55.4,87,75,17.22,AU,1603994934
467,Santa Isabel,-23.32,-46.22,93.2,26,20,4.7,BR,1603994649
468,Liberal,37.04,-100.92,46.4,65,1,13.87,US,1603994934
469,Kuala Terengganu,5.33,103.14,79.36,84,100,4.56,MY,1603994934
470,Sibolga,1.74,98.78,77.58,82,100,3.15,ID,1603994828
471,Muromtsevo,56.37,75.24,33.69,92,100,11.5,RU,1603994935
472,Svetlaya,46.54,138.33,44.1,80,100,21.79,RU,1603994936
473,Qena,26.16,32.72,93.2,14,0,10.29,EG,1603994936
474,Manali,13.17,80.27,76.26,67,58,10.56,IN,1603994936
475,Ibotirama,-12.19,-43.22,90.77,46,81,4.9,BR,1603994937
476,Basco,20.45,121.97,79.59,81,67,26.44,PH,1603994937
477,Yaan,7.38,8.57,81.07,67,77,2.71,NG,1603994938
478,Mitsamiouli,-11.38,43.28,79.5,76,6,4.5,KM,1603994938
479,Skovorodino,53.98,123.92,20.05,94,100,3.36,RU,1603994938
480,Urengoy,65.97,78.37,-1.16,91,2,7.38,RU,1603994939
481,Mareeba,-17.0,145.43,71.6,94,20,0.49,AU,1603994940
482,Giyani,-23.3,30.72,78.78,21,0,4.63,ZA,1603994940
483,Raudeberg,61.99,5.14,46.0,90,40,8.88,NO,1603994925
484,Belle Fourche,44.67,-103.85,57.2,70,1,16.11,US,1603994902
485,Boromo,11.75,-2.93,86.77,18,0,3.85,BF,1603994941
486,Gallup,35.53,-108.74,46.4,46,1,5.26,US,1603994941
487,Port Moresby,-9.44,147.18,75.2,94,40,5.82,PG,1603994942
488,Río Gallegos,-51.62,-69.22,57.2,30,40,31.09,AR,1603994942
489,Healdsburg,38.61,-122.87,71.01,50,1,2.04,US,1603994806
490,Aldan,58.6,125.39,8.11,93,100,0.51,RU,1603994944
491,Yabēlo,4.88,38.08,61.48,90,26,9.24,ET,1603994944
492,San Vicente,-26.62,-54.13,76.98,50,100,5.95,AR,1603994945
493,Doha,25.29,51.53,80.6,54,0,4.16,QA,1603994880
494,Kontagora,10.4,5.47,80.69,34,61,2.46,NG,1603994945
495,Şırnak,37.52,42.46,66.2,22,0,3.36,TR,1603994946
496,Marzuq,14.4,46.47,68.27,31,0,0.49,YE,1603994946
497,Poretskoye,55.2,46.33,32.25,92,0,6.98,RU,1603994946
498,Tokonou,9.65,-9.78,76.03,58,90,3.09,GN,1603994947
499,Soe,-9.86,124.28,67.57,93,10,3.02,ID,1603994947
500,Esso,55.93,158.7,24.21,92,99,2.39,RU,1603994948
501,Tornio,65.85,24.15,42.8,93,90,5.82,FI,1603994948
502,Bulolo,-7.2,146.65,68.79,75,94,1.79,PG,1603994948
503,Diego de Almagro,-26.37,-70.05,80.26,16,0,15.19,CL,1603994949
504,Dingle,11.0,122.67,75.94,89,76,6.64,PH,1603994949
505,Żurrieq,35.83,14.47,66.99,77,0,10.29,MT,1603994949
506,Casino,-28.87,153.05,57.99,100,44,3.36,AU,1603994950
507,Pāsighāt,28.07,95.33,69.87,47,0,4.09,IN,1603994889
508,Makkah al Mukarramah,21.43,39.83,78.15,64,0,2.33,SA,1603994951
509,Sola,-13.88,167.55,80.65,78,72,19.26,VU,1603994951
510,Venado Tuerto,-33.75,-61.97,66.99,43,0,15.01,AR,1603994952
511,Fuente de Oro,3.46,-73.61,88.81,58,48,7.49,CO,1603994952
512,Deputatsky,69.3,139.9,1.22,93,98,0.96,RU,1603994810
513,Nishihara,26.18,127.76,75.2,78,75,4.7,JP,1603994953
514,Newala,-10.94,39.28,69.75,87,92,9.46,TZ,1603994953
515,Mattru,7.62,-11.83,79.88,83,58,4.5,SL,1603994954
516,Tabou,4.42,-7.35,78.76,85,61,6.29,CI,1603994954
517,Mogadishu,2.04,45.34,80.1,78,31,8.25,SO,1603994955
518,Ogaminana,7.59,6.22,81.01,58,92,1.36,NG,1603994955
519,Bluffton,32.24,-80.86,82.0,83,75,20.8,US,1603994704
520,Usogorsk,63.41,48.69,42.44,93,100,10.02,RU,1603994955
521,Tautira,-17.73,-149.15,78.8,83,20,9.17,PF,1603994956
522,Udachny,66.42,112.4,-10.73,89,66,1.59,RU,1603994956
523,Ventspils,57.39,21.56,44.6,100,99,2.24,LV,1603994957
524,West Bay,19.37,-81.42,89.01,74,40,5.82,KY,1603994957
525,Ampanihy,-24.7,44.75,77.58,51,0,17.25,MG,1603994958
526,Saint-Pierre,-21.34,55.48,71.6,68,90,23.04,RE,1603994958
527,Vilyuysk,63.76,121.62,-7.46,91,1,3.06,RU,1603994960
528,Inhambane,-23.86,35.38,77.0,78,20,9.17,MZ,1603994961
529,Beloomut,54.94,39.34,35.01,65,0,4.0,RU,1603994961
530,Zhigansk,66.77,123.37,-12.33,90,58,3.09,RU,1603994961
531,Yarmouth,41.71,-70.23,48.2,93,90,1.86,US,1603994962
532,Sabang,5.89,95.32,82.35,75,99,17.29,ID,1603994963
533,Mutare,-18.97,32.67,68.54,34,0,6.15,ZW,1603994964
534,Zyryanka,65.75,150.85,1.96,94,100,4.52,RU,1603994964
535,Sulangan,11.14,123.72,83.08,77,97,11.65,PH,1603994965
536,Ambulu,-8.35,113.61,76.8,85,56,3.44,ID,1603994965
537,Kisoro,-1.29,29.68,59.97,95,99,1.7,UG,1603994966
538,Saint-Augustin,51.23,-58.65,35.64,83,92,9.04,CA,1603994966
539,Krasnogorskoye,52.3,86.2,27.23,96,100,5.57,RU,1603994967
540,Potiskum,11.71,11.07,85.41,21,19,6.2,NG,1603994967
541,Impfondo,1.64,18.07,69.17,98,99,1.16,CG,1603994968
542,Ilo,-17.64,-71.34,69.8,68,20,8.05,PE,1603994968
543,Waddān,29.16,16.14,65.57,47,0,8.08,LY,1603994969
544,Bajil,15.06,43.29,84.76,50,0,4.79,YE,1603994969
545,Belle Glade,26.68,-80.67,90.0,67,55,9.48,US,1603994970
546,Porbandar,21.64,69.61,80.55,63,15,9.19,IN,1603994970
547,Biloela,-24.42,150.5,61.57,48,0,2.66,AU,1603994970
548,Rawson,-43.3,-65.1,64.36,28,0,5.14,AR,1603994896
549,Douentza,15.0,-2.95,88.07,12,0,6.08,ML,1603994971
550,Nizhniy Tsasuchey,50.52,115.13,32.76,84,100,4.23,RU,1603994971
551,Dubti,11.74,41.09,85.15,27,0,9.46,ET,1603994972
552,Yatou,37.15,122.38,51.39,51,86,5.48,CN,1603994973
553,‘Ewa Beach,21.32,-158.01,73.4,88,90,3.36,US,1603994973
554,Kalmeshwar,21.23,78.9,71.91,56,3,2.71,IN,1603994974
555,San Lucas,16.6,-92.72,82.4,65,40,3.36,MX,1603994974
556,Abu Samrah,35.3,37.18,67.71,57,14,4.45,SY,1603994975
557,Kiruna,67.86,20.23,19.4,100,0,3.36,SE,1603994975
558,Alibag,18.64,72.88,78.75,71,0,2.42,IN,1603994975
559,Kroonstad,-27.65,27.23,73.0,45,41,5.99,ZA,1603994976
560,Banda Aceh,5.56,95.32,80.78,71,100,11.21,ID,1603994976
561,Klyuchi,52.27,79.17,34.99,85,100,17.25,RU,1603994976
562,Yerbogachën,61.28,108.01,15.19,96,100,4.65,RU,1603994839
563,Cap-aux-Meules,47.38,-61.86,42.76,71,81,24.02,CA,1603994977
564,Shihezi,44.3,86.03,40.12,69,92,0.92,CN,1603994978
565,San Clemente,33.43,-117.61,75.0,65,0,1.01,US,1603994978
566,Ceres,37.59,-120.96,66.0,47,1,1.86,US,1603994912
567,Abhā,18.22,42.51,66.2,36,0,6.93,SA,1603994702
568,Ofakim,31.31,34.62,69.01,100,25,7.2,IL,1603994979
569,Nelson Bay,-32.72,152.15,53.01,100,40,5.82,AU,1603994980
570,Vega de Alatorre,20.03,-96.63,71.85,72,95,19.48,MX,1603994980
571,Kwang Binh,17.48,106.6,78.55,88,99,10.51,VN,1603994980
572,Marabu,4.41,114.01,77.0,94,40,5.44,MY,1603994903
573,Mataram,-8.58,116.12,79.72,77,85,1.16,ID,1603994981
574,Isla Vista,34.41,-119.86,68.0,45,1,3.36,US,1603994982
575,Inuvik,68.35,-133.72,10.36,95,99,3.42,CA,1603994758
576,Avera,33.19,-82.53,84.2,70,90,16.11,US,1603994982
577,Fallon,39.47,-118.78,55.99,26,1,1.41,US,1603994919
